{"type":"FeatureCollection", "features": [
{"type":"Feature","geometry":{"type":"Point","coordinates":[-102.20551,17.96171]},"properties":{"ID":1,"entidad":16,"distrito":1,"municipio":50,"seccion":812,"localidad_":1,"manzana":45,"localidad__1":"LAZARO CARDENAS","vocal_nomb":"LIC. JUAN CARLOS GONZALEZ REYES","calle_y_No":"MELCHOR OCAMPO NO. 12","colonia":"SEGUNDO SECTOR DEL FIDELAC","telefono":"01 753 5371104","fax":"01 753 5371104","cod_postal":"60950","control":12,"Geometry_s":"1=XiB7lJniKf","GMRotation":0}},
{"type":"Feature","geometry":{"type":"Point","coordinates":[-100.3693,19.43005]},"properties":{"ID":2,"entidad":16,"distrito":3,"municipio":113,"seccion":2610,"localidad_":1,"manzana":54,"localidad__1":"HEROICA ZITACUARO","vocal_nomb":"LIC. MARIA GUADALUPE COLIN PEDRAZA","calle_y_No":"BLVD. SUPREMA JUNTA NACIONAL AMERICANA 35","colonia":"INFONAVIT/JACARANDAS","telefono":"715 1537827","fax":"715 1537827","cod_postal":"61512","control":13,"Geometry_s":"1=X=muA,^z4p","GMRotation":-0.000001}},
{"type":"Feature","geometry":{"type":"Point","coordinates":[-102.71513,19.98563]},"properties":{"ID":3,"entidad":16,"distrito":4,"municipio":45,"seccion":742,"localidad_":1,"manzana":13,"localidad__1":"JIQUILPAN DE JUAREZ","vocal_nomb":"LIC. JOSE DAVID HERNANDEZ ROSALES","calle_y_No":"FRANCISCO J. MUJICA NO. 385","colonia":"LA CAMPANA","telefono":"01 353 5330104","fax":"01 353 5330104","cod_postal":"59510","control":14,"Geometry_s":"1=X<WHo)76Xp","GMRotation":0}},
{"type":"Feature","geometry":{"type":"Point","coordinates":[-102.28059,19.98797]},"properties":{"ID":4,"entidad":16,"distrito":5,"municipio":109,"seccion":2445,"localidad_":1,"manzana":17,"localidad__1":"ZAMORA DE HIDALGO","vocal_nomb":"MTRA. SILVIA VERONICA MAURICIO SALAZAR","calle_y_No":"CINCO DE MAYO NO. 33","colonia":"CENTRO","telefono":"01 351-5172723","fax":"01 351-5172723","cod_postal":"59600","control":15,"Geometry_s":"1=X<WUlO:@\\>","GMRotation":0}},
{"type":"Feature","geometry":{"type":"Point","coordinates":[-100.55227,19.68403]},"properties":{"ID":5,"entidad":16,"distrito":6,"municipio":34,"seccion":497,"localidad_":1,"manzana":16,"localidad__1":"CIUDAD HIDALGO","vocal_nomb":"LIC. EMILIO MATEOS CUEVAS","calle_y_No":"SANTOS DEGOLLADO NO. 27","colonia":"CENTRO","telefono":"01 786 1542099","fax":"01 786 1542099","cod_postal":"61100","control":16,"Geometry_s":"1=X=m4m3*Ah-","GMRotation":0.000075}},
{"type":"Feature","geometry":{"type":"Point","coordinates":[-101.78872,19.80931]},"properties":{"ID":6,"entidad":16,"distrito":7,"municipio":108,"seccion":2409,"localidad_":1,"manzana":11,"localidad__1":"ZACAPU","vocal_nomb":"LIC JOSE JUAN BECERRA PINEDA","calle_y_No":"AVENIDA DE LAS ROSAS NO. 350","colonia":"MODERNA","telefono":"4363630873","fax":"","cod_postal":"58680","control":17,"Geometry_s":"1=X<Z13Y+8J>","GMRotation":0}},
{"type":"Feature","geometry":{"type":"Point","coordinates":[-101.22236,19.69272]},"properties":{"ID":7,"entidad":16,"distrito":8,"municipio":54,"seccion":1060,"localidad_":1,"manzana":16,"localidad__1":"MORELIA","vocal_nomb":"ING RAYMUNDO REQUENA VILLANUEVA","calle_y_No":"IGNACIO FERNANDEZ DE CORDOBA No. 30-1","colonia":"AGUSTIN ARRIAGA RIVERA","telefono":"01 443 3165506","fax":"","cod_postal":"58190","control":18,"Geometry_s":"1=X<z3L.h)J>","GMRotation":0}},
{"type":"Feature","geometry":{"type":"Point","coordinates":[-102.04688,19.42535]},"properties":{"ID":8,"entidad":16,"distrito":9,"municipio":103,"seccion":2205,"localidad_":1,"manzana":32,"localidad__1":"URUAPAN DEL PROGRESO","vocal_nomb":"CP CLAUDIA MARCELA CARREÃ‘O MENDOZA","calle_y_No":"CALZ BENITO JUAREZ No. 99","colonia":"FRACC DON VASCO","telefono":"4525247873","fax":"","cod_postal":"60110","control":19,"Geometry_s":"1=X<Zh]j=ZHf","GMRotation":0}},
{"type":"Feature","geometry":{"type":"Point","coordinates":[-101.14609,19.7223]},"properties":{"ID":9,"entidad":16,"distrito":10,"municipio":54,"seccion":1035,"localidad_":1,"manzana":251,"localidad__1":"MORELIA","vocal_nomb":"LIC. CHARO CASTOLO CALDERON","calle_y_No":"AV. FRANCISCO I MADERO No 5110","colonia":"COL. CIUDAD INDUSTRIAL","telefono":"01 443 3174490","fax":"","cod_postal":"58210","control":20,"Geometry_s":"1=X<z4_:_^c>","GMRotation":0}},
{"type":"Feature","geometry":{"type":"Point","coordinates":[-101.61119,19.51318]},"properties":{"ID":10,"entidad":16,"distrito":11,"municipio":67,"seccion":1469,"localidad_":1,"manzana":3,"localidad__1":"PATZCUARO","vocal_nomb":"LIC. JESUS MARTINEZ HERNANDEZ","calle_y_No":"PONCE DE LEON NO. 13","colonia":"CENTRO","telefono":"01 434 3427325","fax":"","cod_postal":"61600","control":21,"Geometry_s":"1=X<Zt9BU*Mf","GMRotation":0}},
{"type":"Feature","geometry":{"type":"Point","coordinates":[-102.35104,19.07551]},"properties":{"ID":11,"entidad":16,"distrito":2,"municipio":6,"seccion":111,"localidad_":1,"manzana":15,"localidad__1":"APATZINGAN DE LA CONSTITUCION","vocal_nomb":"LCP JOSE JUAN BECERRA PINEDA","calle_y_No":"AV 22 DE OCTUBRE No 420","colonia":"ADOLFO RUIZ CORTINEZ","telefono":"453 5345041","fax":"","cod_postal":"60679","control":22,"Geometry_s":"1=Xi24mzj)b-","GMRotation":0}}
]}